[
  {"_id":"1",
    "owner":"John Doe",
    "title": "Awesome Place boston",
    "desc":"Near NEU",
    "address":{"addressLine1":"","addressLine2":"","city":"boston","state":"ma","zipCode":"c","lat": "42","long":"-71"},
    "capacity":"100",
    "eventAvailable":["party","marriage","birthday"],
    "facilities":["AC","Music System","Meal Plan"],
    "cost":1000

  },

  {"_id":"2",
    "owner":"Muaaz Salagar",
    "title": "Cozy Stay boston",
    "desc":"Best Party",
    "address":{"addressLine1":"","addressLine2":"","city":"Boston","state":"ma","zipCode":"02120","lat": "43","long":"-71.2"},
    "capacity":"100",
    "eventAvailable":["party","marriage","birthday"],
    "facilities":["DJ","Music System","Meal Plan"],
    "cost":2000

  },

  {"_id":"3",
    "owner":"Tanmay Bududkh",
    "title": "Awesome Place boston",
    "desc":"Panera",
    "address":{"addressLine1":"","addressLine2":"","city":"Boston","state":"ma","zipCode":"02120","lat": "42","long":"-71.6"},
    "capacity":"10",
    "eventAvailable":["party","marriage","birthday"],
    "facilities":["Parking","Music System","Meal Plan"],
    "cost":3000

  },
  {"_id":"4",
    "owner":"Tanmay Bududkh",
    "title": "Awesome Place NY",
    "desc":"Awesome party in NYC",
    "address":{"addressLine1":"","addressLine2":"","city":"new york","state":"NY","zipCode":"","lat": "40","long":"-74.2"},
    "capacity":"10",
    "eventAvailable":["party","marriage","birthday"],
    "facilities":["AC","Music System","Meal Plan"],
    "cost":3000

  },

  {   "_id":"5",
    "title": "Awesome Place LA",
    "desc":"party In LA",
    "address":{"addressLine1":"","addressLine2":"","city":"Los Angeles","state":"NEVADA","zipCode":"","lat": "34","long":"-118"},
    "capacity":"10",
    "eventAvailable":["party","marriage","birthday"],
    "facilities":["Dance floor","Music","Night Life"],
    "cost":3000

  },

  {
    "_id":"6",
    "title": "Awesome Place LA",
    "desc":"Awesome LA Parties",
    "address":{"addressLine1":"","addressLine2":"","city":"Los Angeles","state":"NEVADA","zipCode":"","lat": "34","long":"-117"},
    "capacity":"10",
    "eventAvailable":["party","marriage","birthday"],
    "facilities":["Dance floor","Music","Night Life"],
    "cost":4000

  }
]